[
  {
    "timestamp": "2024-12-02T00:00:00.000Z",
    "station_id": "0115",
    "variable": "Albedo_1_Avg",
    "value": "0.139",
    "flag": 0,
    "units": "unitless",
    "units_plain": "unitless",
    "units_expanded": "ratio",
    "variable_display_name": "Albedo",
    "interval_seconds": 300,
    "station_name": "Piiholo",
    "lat": 20.8415,
    "lng": -156.2948,
    "elevation": 637
  },
  {
    "timestamp": "2024-12-02T00:00:00.000Z",
    "station_id": "0201",
    "variable": "Albedo_1_Avg",
    "value": "0.092",
    "flag": 0,
    "units": "unitless",
    "units_plain": "unitless",
    "units_expanded": "ratio",
    "variable_display_name": "Albedo",
    "interval_seconds": 300,
    "station_name": "Nahuku",
    "lat": 19.415215,
    "lng": -155.238394,
    "elevation": 1202
  },
  {
    "timestamp": "2024-12-02T00:00:00.000Z",
    "station_id": "0154",
    "variable": "Albedo_1_Avg",
    "value": "0.124",
    "flag": 0,
    "units": "unitless",
    "units_plain": "unitless",
    "units_expanded": "ratio",
    "variable_display_name": "Albedo",
    "interval_seconds": 300,
    "station_name": "Waikamoi",
    "lat": 20.773636,
    "lng": -156.222311,
    "elevation": 1935
  },
  {
    "timestamp": "2024-12-02T00:00:00.000Z",
    "station_id": "0222",
    "variable": "Albedo_1_Avg",
    "value": "0.207",
    "flag": 0,
    "units": "unitless",
    "units_plain": "unitless",
    "units_expanded": "ratio",
    "variable_display_name": "Albedo",
    "interval_seconds": 300,
    "station_name": "Aipalaoa",
    "lat": 19.8541197,
    "lng": -155.5915919,
    "elevation": 2039
  },
  {
    "timestamp": "2024-12-02T00:00:00.000Z",
    "station_id": "0241",
    "variable": "Albedo_1_Avg",
    "value": "0.114",
    "flag": 0,
    "units": "unitless",
    "units_plain": "unitless",
    "units_expanded": "ratio",
    "variable_display_name": "Albedo",
    "interval_seconds": 300,
    "station_name": "Keahuolu",
    "lat": 19.668669,
    "lng": -155.957474,
    "elevation": 537
  },
  {
    "timestamp": "2024-12-02T00:00:00.000Z",
    "station_id": "0141",
    "variable": "Albedo_1_Avg",
    "value": "0.125",
    "flag": 0,
    "units": "unitless",
    "units_plain": "unitless",
    "units_expanded": "ratio",
    "variable_display_name": "Albedo",
    "interval_seconds": 300,
    "station_name": "Auwahi",
    "lat": 20.644222,
    "lng": -156.342056,
    "elevation": 1177
  },
  {
    "timestamp": "2024-12-02T00:00:00.000Z",
    "station_id": "0621",
    "variable": "Albedo_1_Avg",
    "value": "0.207",
    "flag": 0,
    "units": "unitless",
    "units_plain": "unitless",
    "units_expanded": "ratio",
    "variable_display_name": "Albedo",
    "interval_seconds": 300,
    "station_name": "Lawai NTBG",
    "lat": 21.905295,
    "lng": -159.510395,
    "elevation": 106
  },
  {
    "timestamp": "2024-12-02T00:00:00.000Z",
    "station_id": "0134",
    "variable": "Albedo_1_Avg",
    "value": "0.124",
    "flag": 0,
    "units": "unitless",
    "units_plain": "unitless",
    "units_expanded": "ratio",
    "variable_display_name": "Albedo",
    "interval_seconds": 300,
    "station_name": "Hanaula",
    "lat": 20.841,
    "lng": -156.5545,
    "elevation": 1215
  },
  {
    "timestamp": "2024-12-02T00:00:00.000Z",
    "station_id": "0155",
    "variable": "Albedo_1_Avg",
    "value": "0.145",
    "flag": 0,
    "units": "unitless",
    "units_plain": "unitless",
    "units_expanded": "ratio",
    "variable_display_name": "Albedo",
    "interval_seconds": 300,
    "station_name": "EMI Base Yard",
    "lat": 20.890997,
    "lng": -156.212316,
    "elevation": 210
  },
  {
    "timestamp": "2024-12-02T00:00:00.000Z",
    "station_id": "0283",
    "variable": "Albedo_1_Avg",
    "value": "0.09",
    "flag": 0,
    "units": "unitless",
    "units_plain": "unitless",
    "units_expanded": "ratio",
    "variable_display_name": "Albedo",
    "interval_seconds": 300,
    "station_name": "Laupahoehoe",
    "lat": 19.93217,
    "lng": -155.29129,
    "elevation": 1152
  },
  {
    "timestamp": "2024-12-02T00:00:00.000Z",
    "station_id": "0166",
    "variable": "Albedo_1_Avg",
    "value": "0.214",
    "flag": 0,
    "units": "unitless",
    "units_plain": "unitless",
    "units_expanded": "ratio",
    "variable_display_name": "Albedo",
    "interval_seconds": 300,
    "station_name": "Kipahulu VC",
    "lat": 20.661092,
    "lng": -156.044767,
    "elevation": 29
  },
  {
    "timestamp": "2024-12-02T00:00:00.000Z",
    "station_id": "0541",
    "variable": "Albedo_1_Avg",
    "value": "0.227",
    "flag": 0,
    "units": "unitless",
    "units_plain": "unitless",
    "units_expanded": "ratio",
    "variable_display_name": "Albedo",
    "interval_seconds": 300,
    "station_name": "Kaaawa Makai",
    "lat": 21.540352,
    "lng": -157.845041,
    "elevation": 3
  },
  {
    "timestamp": "2024-12-02T00:00:00.000Z",
    "station_id": "0221",
    "variable": "Albedo_1_Avg",
    "value": "0.231",
    "flag": 0,
    "units": "unitless",
    "units_plain": "unitless",
    "units_expanded": "ratio",
    "variable_display_name": "Albedo",
    "interval_seconds": 300,
    "station_name": "Kaluamakani",
    "lat": 19.9153271,
    "lng": -155.5002897,
    "elevation": 1880
  },
  {
    "timestamp": "2024-12-02T00:00:00.000Z",
    "station_id": "0506",
    "variable": "Albedo_1_Avg",
    "value": "0.135",
    "flag": 0,
    "units": "unitless",
    "units_plain": "unitless",
    "units_expanded": "ratio",
    "variable_display_name": "Albedo",
    "interval_seconds": 300,
    "station_name": "Kalawahine",
    "lat": 21.34522,
    "lng": -157.80556,
    "elevation": 506
  },
  {
    "timestamp": "2024-12-02T00:00:00.000Z",
    "station_id": "0601",
    "variable": "Albedo_1_Avg",
    "value": "0.172",
    "flag": 0,
    "units": "unitless",
    "units_plain": "unitless",
    "units_expanded": "ratio",
    "variable_display_name": "Albedo",
    "interval_seconds": 300,
    "station_name": "Waipa",
    "lat": 22.202647,
    "lng": -159.518833,
    "elevation": 5
  },
  {
    "timestamp": "2024-12-02T00:00:00.000Z",
    "station_id": "0603",
    "variable": "Albedo_1_Avg",
    "value": "0.159",
    "flag": 0,
    "units": "unitless",
    "units_plain": "unitless",
    "units_expanded": "ratio",
    "variable_display_name": "Albedo",
    "interval_seconds": 300,
    "station_name": "Lower Limahuli",
    "lat": 22.219805,
    "lng": -159.575195,
    "elevation": 31
  },
  {
    "timestamp": "2024-12-02T00:00:00.000Z",
    "station_id": "0245",
    "variable": "Albedo_1_Avg",
    "value": "0.17",
    "flag": 0,
    "units": "unitless",
    "units_plain": "unitless",
    "units_expanded": "ratio",
    "variable_display_name": "Albedo",
    "interval_seconds": 300,
    "station_name": "Kipuka Nui",
    "lat": 19.5087559,
    "lng": -155.8445347,
    "elevation": 1176
  },
  {
    "timestamp": "2024-12-02T00:00:00.000Z",
    "station_id": "0152",
    "variable": "Albedo_1_Avg",
    "value": "0.119",
    "flag": 0,
    "units": "unitless",
    "units_plain": "unitless",
    "units_expanded": "ratio",
    "variable_display_name": "Albedo",
    "interval_seconds": 300,
    "station_name": "Nene Nest",
    "lat": 20.738194,
    "lng": -156.245833,
    "elevation": 2593
  },
  {
    "timestamp": "2024-12-02T00:00:00.000Z",
    "station_id": "0133",
    "variable": "Albedo_1_Avg",
    "value": "0.118",
    "flag": 0,
    "units": "unitless",
    "units_plain": "unitless",
    "units_expanded": "ratio",
    "variable_display_name": "Albedo",
    "interval_seconds": 300,
    "station_name": "Honolua",
    "lat": 21.0012,
    "lng": -156.62267,
    "elevation": 170
  },
  {
    "timestamp": "2024-12-02T00:00:00.000Z",
    "station_id": "0242",
    "variable": "Albedo_1_Avg",
    "value": "0.218",
    "flag": 0,
    "units": "unitless",
    "units_plain": "unitless",
    "units_expanded": "ratio",
    "variable_display_name": "Albedo",
    "interval_seconds": 300,
    "station_name": "Kaiaulu Puuwaawaa",
    "lat": 19.77241,
    "lng": -155.83118,
    "elevation": 1161
  },
  {
    "timestamp": "2024-12-02T00:00:00.000Z",
    "station_id": "0412",
    "variable": "Albedo_1_Avg",
    "value": "0.176",
    "flag": 0,
    "units": "unitless",
    "units_plain": "unitless",
    "units_expanded": "ratio",
    "variable_display_name": "Albedo",
    "interval_seconds": 300,
    "station_name": "Honoulimaloo",
    "lat": 21.131411,
    "lng": -156.758626,
    "elevation": 402
  },
  {
    "timestamp": "2024-12-02T00:00:00.000Z",
    "station_id": "0153",
    "variable": "Albedo_1_Avg",
    "value": "0.05817252",
    "flag": 0,
    "units": "unitless",
    "units_plain": "unitless",
    "units_expanded": "ratio",
    "variable_display_name": "Albedo",
    "interval_seconds": 300,
    "station_name": "Summit",
    "lat": 20.710361,
    "lng": -156.25675,
    "elevation": 2984
  },
  {
    "timestamp": "2024-12-02T00:00:00.000Z",
    "station_id": "0287",
    "variable": "Albedo_1_Avg",
    "value": "0.12",
    "flag": 0,
    "units": "unitless",
    "units_plain": "unitless",
    "units_expanded": "ratio",
    "variable_display_name": "Albedo",
    "interval_seconds": 300,
    "station_name": "Mamalahoa",
    "lat": 19.80258,
    "lng": -155.850629,
    "elevation": 603
  },
  {
    "timestamp": "2024-12-02T00:00:00.000Z",
    "station_id": "0212",
    "variable": "Albedo_1_Avg",
    "value": "0.219",
    "flag": 0,
    "units": "unitless",
    "units_plain": "unitless",
    "units_expanded": "ratio",
    "variable_display_name": "Albedo",
    "interval_seconds": 300,
    "station_name": "Kulaimano",
    "lat": 19.834341,
    "lng": -155.122435,
    "elevation": 260
  },
  {
    "timestamp": "2024-12-02T00:00:00.000Z",
    "station_id": "0119",
    "variable": "Albedo_1_Avg",
    "value": "0.152",
    "flag": 0,
    "units": "unitless",
    "units_plain": "unitless",
    "units_expanded": "ratio",
    "variable_display_name": "Albedo",
    "interval_seconds": 300,
    "station_name": "Kula Ag",
    "lat": 20.757889,
    "lng": -156.320028,
    "elevation": 964
  },
  {
    "timestamp": "2024-12-02T00:00:00.000Z",
    "station_id": "0118",
    "variable": "Albedo_1_Avg",
    "value": "0.109",
    "flag": 0,
    "units": "unitless",
    "units_plain": "unitless",
    "units_expanded": "ratio",
    "variable_display_name": "Albedo",
    "interval_seconds": 300,
    "station_name": "Pulehu",
    "lat": 20.79532,
    "lng": -156.35991,
    "elevation": 427
  },
  {
    "timestamp": "2024-12-02T00:00:00.000Z",
    "station_id": "0231",
    "variable": "Albedo_1_Avg",
    "value": "0.192",
    "flag": 0,
    "units": "unitless",
    "units_plain": "unitless",
    "units_expanded": "ratio",
    "variable_display_name": "Albedo",
    "interval_seconds": 300,
    "station_name": "Kaiholena",
    "lat": 19.16877,
    "lng": -155.57035,
    "elevation": 631
  },
  {
    "timestamp": "2024-12-02T00:00:00.000Z",
    "station_id": "0116",
    "variable": "Albedo_1_Avg",
    "value": "0.163",
    "flag": 0,
    "units": "unitless",
    "units_plain": "unitless",
    "units_expanded": "ratio",
    "variable_display_name": "Albedo",
    "interval_seconds": 300,
    "station_name": "Keokea",
    "lat": 20.7067,
    "lng": -156.3554,
    "elevation": 871
  },
  {
    "timestamp": "2024-12-02T00:00:00.000Z",
    "station_id": "0121",
    "variable": "Albedo_1_Avg",
    "value": "0.134",
    "flag": 0,
    "units": "unitless",
    "units_plain": "unitless",
    "units_expanded": "ratio",
    "variable_display_name": "Albedo",
    "interval_seconds": 300,
    "station_name": "Lipoa",
    "lat": 20.7458333,
    "lng": -156.4305556,
    "elevation": 88
  },
  {
    "timestamp": "2024-12-02T00:00:00.000Z",
    "station_id": "0132",
    "variable": "Albedo_1_Avg",
    "value": "0.166",
    "flag": 0,
    "units": "unitless",
    "units_plain": "unitless",
    "units_expanded": "ratio",
    "variable_display_name": "Albedo",
    "interval_seconds": 300,
    "station_name": "Olowalu",
    "lat": 20.82078,
    "lng": -156.6152,
    "elevation": 54
  },
  {
    "timestamp": "2024-12-02T00:00:00.000Z",
    "station_id": "0244",
    "variable": "Albedo_1_Avg",
    "value": "0.211",
    "flag": 0,
    "units": "unitless",
    "units_plain": "unitless",
    "units_expanded": "ratio",
    "variable_display_name": "Albedo",
    "interval_seconds": 300,
    "station_name": "Kealakekua",
    "lat": 19.505859,
    "lng": -155.762429,
    "elevation": 1840
  },
  {
    "timestamp": "2024-12-02T00:00:00.000Z",
    "station_id": "0551",
    "variable": "Albedo_1_Avg",
    "value": "0.138",
    "flag": 0,
    "units": "unitless",
    "units_plain": "unitless",
    "units_expanded": "ratio",
    "variable_display_name": "Albedo",
    "interval_seconds": 300,
    "station_name": "Kalahee Ridge",
    "lat": 21.63252,
    "lng": -158.04065,
    "elevation": 197
  },
  {
    "timestamp": "2024-12-02T00:00:00.000Z",
    "station_id": "0281",
    "variable": "Albedo_1_Avg",
    "value": "0.08",
    "flag": 0,
    "units": "unitless",
    "units_plain": "unitless",
    "units_expanded": "ratio",
    "variable_display_name": "Albedo",
    "interval_seconds": 300,
    "station_name": "IPIF",
    "lat": 19.69748,
    "lng": -155.0954,
    "elevation": 112
  },
  {
    "timestamp": "2024-12-02T00:00:00.000Z",
    "station_id": "0602",
    "variable": "Albedo_1_Avg",
    "value": "0.229",
    "flag": 0,
    "units": "unitless",
    "units_plain": "unitless",
    "units_expanded": "ratio",
    "variable_display_name": "Albedo",
    "interval_seconds": 300,
    "station_name": "Common Ground",
    "lat": 22.197439,
    "lng": -159.42123,
    "elevation": 112
  },
  {
    "timestamp": "2024-12-02T00:00:00.000Z",
    "station_id": "0282",
    "variable": "Albedo_1_Avg",
    "value": "0.148",
    "flag": 0,
    "units": "unitless",
    "units_plain": "unitless",
    "units_expanded": "ratio",
    "variable_display_name": "Albedo",
    "interval_seconds": 300,
    "station_name": "Spencer",
    "lat": 19.96358,
    "lng": -155.25014,
    "elevation": 469
  },
  {
    "timestamp": "2024-12-02T00:00:00.000Z",
    "station_id": "0251",
    "variable": "Albedo_1_Avg",
    "value": "0.152",
    "flag": 0,
    "units": "unitless",
    "units_plain": "unitless",
    "units_expanded": "ratio",
    "variable_display_name": "Albedo",
    "interval_seconds": 300,
    "station_name": "Kehena",
    "lat": 20.122834,
    "lng": -155.749329,
    "elevation": 1158
  },
  {
    "timestamp": "2024-12-02T00:00:00.000Z",
    "station_id": "0502",
    "variable": "Albedo_1_Avg",
    "value": "0.18",
    "flag": 0,
    "units": "unitless",
    "units_plain": "unitless",
    "units_expanded": "ratio",
    "variable_display_name": "Albedo",
    "interval_seconds": 300,
    "station_name": "Nuuanu Res 1",
    "lat": 21.339124,
    "lng": -157.836859,
    "elevation": 117
  },
  {
    "timestamp": "2024-12-02T00:00:00.000Z",
    "station_id": "0411",
    "variable": "Albedo_1_Avg",
    "value": "0.136",
    "flag": 0,
    "units": "unitless",
    "units_plain": "unitless",
    "units_expanded": "ratio",
    "variable_display_name": "Albedo",
    "interval_seconds": 300,
    "station_name": "Keopukaloa",
    "lat": 21.145283,
    "lng": -156.729459,
    "elevation": 187
  },
  {
    "timestamp": "2024-12-02T00:00:00.000Z",
    "station_id": "0431",
    "variable": "Albedo_1_Avg",
    "value": "0.106",
    "flag": 0,
    "units": "unitless",
    "units_plain": "unitless",
    "units_expanded": "ratio",
    "variable_display_name": "Albedo",
    "interval_seconds": 300,
    "station_name": "Anapuka",
    "lat": 21.215984,
    "lng": -157.241786,
    "elevation": 68
  },
  {
    "timestamp": "2024-12-02T00:00:00.000Z",
    "station_id": "0204",
    "variable": "Albedo_1_Avg",
    "value": "0.237",
    "flag": 0,
    "units": "unitless",
    "units_plain": "unitless",
    "units_expanded": "ratio",
    "variable_display_name": "Albedo",
    "interval_seconds": 300,
    "station_name": "Pahoa",
    "lat": 19.501169,
    "lng": -154.943731,
    "elevation": 175
  },
  {
    "timestamp": "2024-12-02T00:00:00.000Z",
    "station_id": "0214",
    "variable": "Albedo_1_Avg",
    "value": "0.178",
    "flag": 0,
    "units": "unitless",
    "units_plain": "unitless",
    "units_expanded": "ratio",
    "variable_display_name": "Albedo",
    "interval_seconds": 300,
    "station_name": "Waipunalei",
    "lat": 19.9090639,
    "lng": -155.332875,
    "elevation": 1654
  },
  {
    "timestamp": "2024-12-02T00:00:00.000Z",
    "station_id": "0243",
    "variable": "Albedo_1_Avg",
    "value": "0.084",
    "flag": 0,
    "units": "unitless",
    "units_plain": "unitless",
    "units_expanded": "ratio",
    "variable_display_name": "Albedo",
    "interval_seconds": 300,
    "station_name": "Kona Hema",
    "lat": 19.2068247,
    "lng": -155.8109802,
    "elevation": 1283
  },
  {
    "timestamp": "2024-12-02T00:00:00.000Z",
    "station_id": "0211",
    "variable": "Albedo_1_Avg",
    "value": "0.173",
    "flag": 0,
    "units": "unitless",
    "units_plain": "unitless",
    "units_expanded": "ratio",
    "variable_display_name": "Albedo",
    "interval_seconds": 300,
    "station_name": "Kanakaleonui",
    "lat": 19.845036,
    "lng": -155.362586,
    "elevation": 2352
  },
  {
    "timestamp": "2024-12-02T00:00:00.000Z",
    "station_id": "0288",
    "variable": "Albedo_1_Avg",
    "value": "0.14",
    "flag": 0,
    "units": "unitless",
    "units_plain": "unitless",
    "units_expanded": "ratio",
    "variable_display_name": "Albedo",
    "interval_seconds": 300,
    "station_name": "Puuwaawaa",
    "lat": 19.725393,
    "lng": -155.873917,
    "elevation": 1654
  },
  {
    "timestamp": "2024-12-02T00:00:00.000Z",
    "station_id": "0151",
    "variable": "Albedo_1_Avg",
    "value": "0.095",
    "flag": 0,
    "units": "unitless",
    "units_plain": "unitless",
    "units_expanded": "ratio",
    "variable_display_name": "Albedo",
    "interval_seconds": 300,
    "station_name": "Park HQ",
    "lat": 20.759806,
    "lng": -156.248167,
    "elevation": 2114
  },
  {
    "timestamp": "2024-12-02T00:00:00.000Z",
    "station_id": "0213",
    "variable": "Albedo_1_Avg",
    "value": "0.118",
    "flag": 0,
    "units": "unitless",
    "units_plain": "unitless",
    "units_expanded": "ratio",
    "variable_display_name": "Albedo",
    "interval_seconds": 300,
    "station_name": "Piihonua",
    "lat": 19.7064059,
    "lng": -155.1873737,
    "elevation": 606
  },
  {
    "timestamp": "2024-12-02T00:00:00.000Z",
    "station_id": "0521",
    "variable": "Albedo_1_Avg",
    "value": "0.066",
    "flag": 0,
    "units": "unitless",
    "units_plain": "unitless",
    "units_expanded": "ratio",
    "variable_display_name": "Albedo",
    "interval_seconds": 300,
    "station_name": "Kaala",
    "lat": 21.50675,
    "lng": -158.144861,
    "elevation": 1205
  },
  {
    "timestamp": "2024-12-02T00:00:00.000Z",
    "station_id": "0286",
    "variable": "Albedo_1_Avg",
    "value": "0.1",
    "flag": 0,
    "units": "unitless",
    "units_plain": "unitless",
    "units_expanded": "ratio",
    "variable_display_name": "Albedo",
    "interval_seconds": 300,
    "station_name": "Palamanui",
    "lat": 19.73756,
    "lng": -155.99582,
    "elevation": 264
  },
  {
    "timestamp": "2024-12-02T00:00:00.000Z",
    "station_id": "0202",
    "variable": "Albedo_1_Avg",
    "value": "0.215",
    "flag": 0,
    "units": "unitless",
    "units_plain": "unitless",
    "units_expanded": "ratio",
    "variable_display_name": "Albedo",
    "interval_seconds": 300,
    "station_name": "Keaau",
    "lat": 19.6061748,
    "lng": -155.0515231,
    "elevation": 182
  },
  {
    "timestamp": "2024-12-02T00:00:00.000Z",
    "station_id": "0131",
    "variable": "Albedo_1_Avg",
    "value": "0.115",
    "flag": 0,
    "units": "unitless",
    "units_plain": "unitless",
    "units_expanded": "ratio",
    "variable_display_name": "Albedo",
    "interval_seconds": 300,
    "station_name": "Lahaina WTP",
    "lat": 20.89072,
    "lng": -156.65493,
    "elevation": 244
  },
  {
    "timestamp": "2024-12-02T00:00:00.000Z",
    "station_id": "0501",
    "variable": "Albedo_1_Avg",
    "value": "0.103",
    "flag": 0,
    "units": "unitless",
    "units_plain": "unitless",
    "units_expanded": "ratio",
    "variable_display_name": "Albedo",
    "interval_seconds": 300,
    "station_name": "Lyon",
    "lat": 21.333,
    "lng": -157.8025,
    "elevation": 151
  },
  {
    "timestamp": "2024-12-02T00:00:00.000Z",
    "station_id": "0252",
    "variable": "Albedo_1_Avg",
    "value": "0.159",
    "flag": 0,
    "units": "unitless",
    "units_plain": "unitless",
    "units_expanded": "ratio",
    "variable_display_name": "Albedo",
    "interval_seconds": 300,
    "station_name": "Lalamilo",
    "lat": 20.019528,
    "lng": -155.677085,
    "elevation": 802
  },
  {
    "timestamp": "2024-12-02T00:00:00.000Z",
    "station_id": "0143",
    "variable": "BattVolt",
    "value": "12.11",
    "flag": 0,
    "units": "V",
    "units_plain": "V",
    "units_expanded": "volt",
    "variable_display_name": "Battery voltage",
    "interval_seconds": 900,
    "station_name": "Nakula",
    "lat": 20.674736,
    "lng": -156.233487,
    "elevation": 1632
  },
  {
    "timestamp": "2024-12-02T00:00:00.000Z",
    "station_id": "0504",
    "variable": "BattVolt",
    "value": "13.45",
    "flag": 0,
    "units": "V",
    "units_plain": "V",
    "units_expanded": "volt",
    "variable_display_name": "Battery voltage",
    "interval_seconds": 300,
    "station_name": "Waolani",
    "lat": 21.33756,
    "lng": -157.84092,
    "elevation": 98
  },
  {
    "timestamp": "2024-12-02T00:00:00.000Z",
    "station_id": "0505",
    "variable": "BattVolt",
    "value": "13.6",
    "flag": 0,
    "units": "V",
    "units_plain": "V",
    "units_expanded": "volt",
    "variable_display_name": "Battery voltage",
    "interval_seconds": 300,
    "station_name": "Napuumaia",
    "lat": 21.35489,
    "lng": -157.83063,
    "elevation": 508
  },
  {
    "timestamp": "2024-12-02T00:00:00.000Z",
    "station_id": "0251",
    "variable": "BattVolt",
    "value": "13.62",
    "flag": 0,
    "units": "V",
    "units_plain": "V",
    "units_expanded": "volt",
    "variable_display_name": "Battery voltage",
    "interval_seconds": 300,
    "station_name": "Kehena",
    "lat": 20.122834,
    "lng": -155.749329,
    "elevation": 1158
  },
  {
    "timestamp": "2024-12-02T00:00:00.000Z",
    "station_id": "0121",
    "variable": "BattVolt",
    "value": "13.58",
    "flag": 0,
    "units": "V",
    "units_plain": "V",
    "units_expanded": "volt",
    "variable_display_name": "Battery voltage",
    "interval_seconds": 300,
    "station_name": "Lipoa",
    "lat": 20.7458333,
    "lng": -156.4305556,
    "elevation": 88
  },
  {
    "timestamp": "2024-12-02T00:00:00.000Z",
    "station_id": "0154",
    "variable": "BattVolt",
    "value": "13.75",
    "flag": 0,
    "units": "V",
    "units_plain": "V",
    "units_expanded": "volt",
    "variable_display_name": "Battery voltage",
    "interval_seconds": 300,
    "station_name": "Waikamoi",
    "lat": 20.773636,
    "lng": -156.222311,
    "elevation": 1935
  },
  {
    "timestamp": "2024-12-02T00:00:00.000Z",
    "station_id": "0503",
    "variable": "BattVolt",
    "value": "13.39",
    "flag": 0,
    "units": "V",
    "units_plain": "V",
    "units_expanded": "volt",
    "variable_display_name": "Battery voltage",
    "interval_seconds": 300,
    "station_name": "Upper Waolani",
    "lat": 21.34666,
    "lng": -157.83641,
    "elevation": 202
  },
  {
    "timestamp": "2024-12-02T00:00:00.000Z",
    "station_id": "0245",
    "variable": "BattVolt",
    "value": "13.68",
    "flag": 0,
    "units": "V",
    "units_plain": "V",
    "units_expanded": "volt",
    "variable_display_name": "Battery voltage",
    "interval_seconds": 300,
    "station_name": "Kipuka Nui",
    "lat": 19.5087559,
    "lng": -155.8445347,
    "elevation": 1176
  },
  {
    "timestamp": "2024-12-02T00:00:00.000Z",
    "station_id": "0116",
    "variable": "BattVolt",
    "value": "13.62",
    "flag": 0,
    "units": "V",
    "units_plain": "V",
    "units_expanded": "volt",
    "variable_display_name": "Battery voltage",
    "interval_seconds": 300,
    "station_name": "Keokea",
    "lat": 20.7067,
    "lng": -156.3554,
    "elevation": 871
  },
  {
    "timestamp": "2024-12-02T00:00:00.000Z",
    "station_id": "0222",
    "variable": "BattVolt",
    "value": "13.7",
    "flag": 0,
    "units": "V",
    "units_plain": "V",
    "units_expanded": "volt",
    "variable_display_name": "Battery voltage",
    "interval_seconds": 300,
    "station_name": "Aipalaoa",
    "lat": 19.8541197,
    "lng": -155.5915919,
    "elevation": 2039
  },
  {
    "timestamp": "2024-12-02T00:00:00.000Z",
    "station_id": "0502",
    "variable": "BattVolt",
    "value": "13.47",
    "flag": 0,
    "units": "V",
    "units_plain": "V",
    "units_expanded": "volt",
    "variable_display_name": "Battery voltage",
    "interval_seconds": 300,
    "station_name": "Nuuanu Res 1",
    "lat": 21.339124,
    "lng": -157.836859,
    "elevation": 117
  },
  {
    "timestamp": "2024-12-02T00:00:00.000Z",
    "station_id": "0244",
    "variable": "BattVolt",
    "value": "13.74",
    "flag": 0,
    "units": "V",
    "units_plain": "V",
    "units_expanded": "volt",
    "variable_display_name": "Battery voltage",
    "interval_seconds": 300,
    "station_name": "Kealakekua",
    "lat": 19.505859,
    "lng": -155.762429,
    "elevation": 1840
  },
  {
    "timestamp": "2024-12-02T00:00:00.000Z",
    "station_id": "0506",
    "variable": "BattVolt",
    "value": "13.12",
    "flag": 0,
    "units": "V",
    "units_plain": "V",
    "units_expanded": "volt",
    "variable_display_name": "Battery voltage",
    "interval_seconds": 300,
    "station_name": "Kalawahine",
    "lat": 21.34522,
    "lng": -157.80556,
    "elevation": 506
  },
  {
    "timestamp": "2024-12-02T00:00:00.000Z",
    "station_id": "0132",
    "variable": "BattVolt",
    "value": "13.45",
    "flag": 0,
    "units": "V",
    "units_plain": "V",
    "units_expanded": "volt",
    "variable_display_name": "Battery voltage",
    "interval_seconds": 300,
    "station_name": "Olowalu",
    "lat": 20.82078,
    "lng": -156.6152,
    "elevation": 54
  },
  {
    "timestamp": "2024-12-02T00:00:00.000Z",
    "station_id": "0221",
    "variable": "BattVolt",
    "value": "13.76",
    "flag": 0,
    "units": "V",
    "units_plain": "V",
    "units_expanded": "volt",
    "variable_display_name": "Battery voltage",
    "interval_seconds": 300,
    "station_name": "Kaluamakani",
    "lat": 19.9153271,
    "lng": -155.5002897,
    "elevation": 1880
  },
  {
    "timestamp": "2024-12-02T00:00:00.000Z",
    "station_id": "0520",
    "variable": "BattVolt",
    "value": "13.48",
    "flag": 0,
    "units": "V",
    "units_plain": "V",
    "units_expanded": "volt",
    "variable_display_name": "Battery voltage",
    "interval_seconds": 300,
    "station_name": "Kaala Repeater",
    "lat": null,
    "lng": null,
    "elevation": null
  },
  {
    "timestamp": "2024-12-02T00:00:00.000Z",
    "station_id": "0155",
    "variable": "BattVolt",
    "value": "13.54",
    "flag": 0,
    "units": "V",
    "units_plain": "V",
    "units_expanded": "volt",
    "variable_display_name": "Battery voltage",
    "interval_seconds": 300,
    "station_name": "EMI Base Yard",
    "lat": 20.890997,
    "lng": -156.212316,
    "elevation": 210
  },
  {
    "timestamp": "2024-12-02T00:00:00.000Z",
    "station_id": "0214",
    "variable": "BattVolt",
    "value": "13.6",
    "flag": 0,
    "units": "V",
    "units_plain": "V",
    "units_expanded": "volt",
    "variable_display_name": "Battery voltage",
    "interval_seconds": 300,
    "station_name": "Waipunalei",
    "lat": 19.9090639,
    "lng": -155.332875,
    "elevation": 1654
  },
  {
    "timestamp": "2024-12-02T00:00:00.000Z",
    "station_id": "0145",
    "variable": "BattVolt",
    "value": "13.64",
    "flag": 0,
    "units": "V",
    "units_plain": "V",
    "units_expanded": "volt",
    "variable_display_name": "Battery voltage",
    "interval_seconds": 300,
    "station_name": "Upper Kahikinui",
    "lat": 20.644215,
    "lng": -156.284703,
    "elevation": 1034
  },
  {
    "timestamp": "2024-12-02T00:00:00.000Z",
    "station_id": "0118",
    "variable": "BattVolt",
    "value": "13.6",
    "flag": 0,
    "units": "V",
    "units_plain": "V",
    "units_expanded": "volt",
    "variable_display_name": "Battery voltage",
    "interval_seconds": 300,
    "station_name": "Pulehu",
    "lat": 20.79532,
    "lng": -156.35991,
    "elevation": 427
  },
  {
    "timestamp": "2024-12-02T00:00:00.000Z",
    "station_id": "0212",
    "variable": "BattVolt",
    "value": "13.6",
    "flag": 0,
    "units": "V",
    "units_plain": "V",
    "units_expanded": "volt",
    "variable_display_name": "Battery voltage",
    "interval_seconds": 300,
    "station_name": "Kulaimano",
    "lat": 19.834341,
    "lng": -155.122435,
    "elevation": 260
  },
  {
    "timestamp": "2024-12-02T00:00:00.000Z",
    "station_id": "0501",
    "variable": "BattVolt",
    "value": "12.91",
    "flag": 0,
    "units": "V",
    "units_plain": "V",
    "units_expanded": "volt",
    "variable_display_name": "Battery voltage",
    "interval_seconds": 300,
    "station_name": "Lyon",
    "lat": 21.333,
    "lng": -157.8025,
    "elevation": 151
  },
  {
    "timestamp": "2024-12-02T00:00:00.000Z",
    "station_id": "0521",
    "variable": "BattVolt",
    "value": "13.67",
    "flag": 0,
    "units": "V",
    "units_plain": "V",
    "units_expanded": "volt",
    "variable_display_name": "Battery voltage",
    "interval_seconds": 300,
    "station_name": "Kaala",
    "lat": 21.50675,
    "lng": -158.144861,
    "elevation": 1205
  },
  {
    "timestamp": "2024-12-02T00:00:00.000Z",
    "station_id": "0411",
    "variable": "BattVolt",
    "value": "13.59",
    "flag": 0,
    "units": "V",
    "units_plain": "V",
    "units_expanded": "volt",
    "variable_display_name": "Battery voltage",
    "interval_seconds": 300,
    "station_name": "Keopukaloa",
    "lat": 21.145283,
    "lng": -156.729459,
    "elevation": 187
  },
  {
    "timestamp": "2024-12-02T00:00:00.000Z",
    "station_id": "0243",
    "variable": "BattVolt",
    "value": "13.71",
    "flag": 0,
    "units": "V",
    "units_plain": "V",
    "units_expanded": "volt",
    "variable_display_name": "Battery voltage",
    "interval_seconds": 300,
    "station_name": "Kona Hema",
    "lat": 19.2068247,
    "lng": -155.8109802,
    "elevation": 1283
  },
  {
    "timestamp": "2024-12-02T00:00:00.000Z",
    "station_id": "0412",
    "variable": "BattVolt",
    "value": "13.57",
    "flag": 0,
    "units": "V",
    "units_plain": "V",
    "units_expanded": "volt",
    "variable_display_name": "Battery voltage",
    "interval_seconds": 300,
    "station_name": "Honoulimaloo",
    "lat": 21.131411,
    "lng": -156.758626,
    "elevation": 402
  },
  {
    "timestamp": "2024-12-02T00:00:00.000Z",
    "station_id": "0131",
    "variable": "BattVolt",
    "value": "13.48",
    "flag": 0,
    "units": "V",
    "units_plain": "V",
    "units_expanded": "volt",
    "variable_display_name": "Battery voltage",
    "interval_seconds": 300,
    "station_name": "Lahaina WTP",
    "lat": 20.89072,
    "lng": -156.65493,
    "elevation": 244
  },
  {
    "timestamp": "2024-12-02T00:00:00.000Z",
    "station_id": "0213",
    "variable": "BattVolt",
    "value": "13.66",
    "flag": 0,
    "units": "V",
    "units_plain": "V",
    "units_expanded": "volt",
    "variable_display_name": "Battery voltage",
    "interval_seconds": 300,
    "station_name": "Piihonua",
    "lat": 19.7064059,
    "lng": -155.1873737,
    "elevation": 606
  },
  {
    "timestamp": "2024-12-02T00:00:00.000Z",
    "station_id": "0152",
    "variable": "BattVolt",
    "value": "12.67",
    "flag": 0,
    "units": "V",
    "units_plain": "V",
    "units_expanded": "volt",
    "variable_display_name": "Battery voltage",
    "interval_seconds": 300,
    "station_name": "Nene Nest",
    "lat": 20.738194,
    "lng": -156.245833,
    "elevation": 2593
  },
  {
    "timestamp": "2024-12-02T00:00:00.000Z",
    "station_id": "0204",
    "variable": "BattVolt",
    "value": "13.59",
    "flag": 0,
    "units": "V",
    "units_plain": "V",
    "units_expanded": "volt",
    "variable_display_name": "Battery voltage",
    "interval_seconds": 300,
    "station_name": "Pahoa",
    "lat": 19.501169,
    "lng": -154.943731,
    "elevation": 175
  },
  {
    "timestamp": "2024-12-02T00:00:00.000Z",
    "station_id": "0133",
    "variable": "BattVolt",
    "value": "13.58",
    "flag": 0,
    "units": "V",
    "units_plain": "V",
    "units_expanded": "volt",
    "variable_display_name": "Battery voltage",
    "interval_seconds": 300,
    "station_name": "Honolua",
    "lat": 21.0012,
    "lng": -156.62267,
    "elevation": 170
  },
  {
    "timestamp": "2024-12-02T00:00:00.000Z",
    "station_id": "0141",
    "variable": "BattVolt",
    "value": "13.55",
    "flag": 0,
    "units": "V",
    "units_plain": "V",
    "units_expanded": "volt",
    "variable_display_name": "Battery voltage",
    "interval_seconds": 300,
    "station_name": "Auwahi",
    "lat": 20.644222,
    "lng": -156.342056,
    "elevation": 1177
  },
  {
    "timestamp": "2024-12-02T00:00:00.000Z",
    "station_id": "0242",
    "variable": "BattVolt",
    "value": "13.23",
    "flag": 0,
    "units": "V",
    "units_plain": "V",
    "units_expanded": "volt",
    "variable_display_name": "Battery voltage",
    "interval_seconds": 300,
    "station_name": "Kaiaulu Puuwaawaa",
    "lat": 19.77241,
    "lng": -155.83118,
    "elevation": 1161
  },
  {
    "timestamp": "2024-12-02T00:00:00.000Z",
    "station_id": "0166",
    "variable": "BattVolt",
    "value": "13.33",
    "flag": 0,
    "units": "V",
    "units_plain": "V",
    "units_expanded": "volt",
    "variable_display_name": "Battery voltage",
    "interval_seconds": 300,
    "station_name": "Kipahulu VC",
    "lat": 20.661092,
    "lng": -156.044767,
    "elevation": 29
  },
  {
    "timestamp": "2024-12-02T00:00:00.000Z",
    "station_id": "0288",
    "variable": "BattVolt",
    "value": "13.15",
    "flag": 0,
    "units": "V",
    "units_plain": "V",
    "units_expanded": "volt",
    "variable_display_name": "Battery voltage",
    "interval_seconds": 300,
    "station_name": "Puuwaawaa",
    "lat": 19.725393,
    "lng": -155.873917,
    "elevation": 1654
  },
  {
    "timestamp": "2024-12-02T00:00:00.000Z",
    "station_id": "0283",
    "variable": "BattVolt",
    "value": "13.04",
    "flag": 0,
    "units": "V",
    "units_plain": "V",
    "units_expanded": "volt",
    "variable_display_name": "Battery voltage",
    "interval_seconds": 300,
    "station_name": "Laupahoehoe",
    "lat": 19.93217,
    "lng": -155.29129,
    "elevation": 1152
  },
  {
    "timestamp": "2024-12-02T00:00:00.000Z",
    "station_id": "0286",
    "variable": "BattVolt",
    "value": "13.34",
    "flag": 0,
    "units": "V",
    "units_plain": "V",
    "units_expanded": "volt",
    "variable_display_name": "Battery voltage",
    "interval_seconds": 300,
    "station_name": "Palamanui",
    "lat": 19.73756,
    "lng": -155.99582,
    "elevation": 264
  },
  {
    "timestamp": "2024-12-02T00:00:00.000Z",
    "station_id": "0134",
    "variable": "BattVolt",
    "value": "13.66",
    "flag": 0,
    "units": "V",
    "units_plain": "V",
    "units_expanded": "volt",
    "variable_display_name": "Battery voltage",
    "interval_seconds": 300,
    "station_name": "Hanaula",
    "lat": 20.841,
    "lng": -156.5545,
    "elevation": 1215
  },
  {
    "timestamp": "2024-12-02T00:00:00.000Z",
    "station_id": "0153",
    "variable": "BattVolt",
    "value": "13.46",
    "flag": 0,
    "units": "V",
    "units_plain": "V",
    "units_expanded": "volt",
    "variable_display_name": "Battery voltage",
    "interval_seconds": 300,
    "station_name": "Summit",
    "lat": 20.710361,
    "lng": -156.25675,
    "elevation": 2984
  },
  {
    "timestamp": "2024-12-02T00:00:00.000Z",
    "station_id": "0119",
    "variable": "BattVolt",
    "value": "13.11",
    "flag": 0,
    "units": "V",
    "units_plain": "V",
    "units_expanded": "volt",
    "variable_display_name": "Battery voltage",
    "interval_seconds": 300,
    "station_name": "Kula Ag",
    "lat": 20.757889,
    "lng": -156.320028,
    "elevation": 964
  },
  {
    "timestamp": "2024-12-02T00:00:00.000Z",
    "station_id": "0115",
    "variable": "BattVolt",
    "value": "13.58",
    "flag": 0,
    "units": "V",
    "units_plain": "V",
    "units_expanded": "volt",
    "variable_display_name": "Battery voltage",
    "interval_seconds": 300,
    "station_name": "Piiholo",
    "lat": 20.8415,
    "lng": -156.2948,
    "elevation": 637
  },
  {
    "timestamp": "2024-12-02T00:00:00.000Z",
    "station_id": "0231",
    "variable": "BattVolt",
    "value": "13.66",
    "flag": 0,
    "units": "V",
    "units_plain": "V",
    "units_expanded": "volt",
    "variable_display_name": "Battery voltage",
    "interval_seconds": 300,
    "station_name": "Kaiholena",
    "lat": 19.16877,
    "lng": -155.57035,
    "elevation": 631
  },
  {
    "timestamp": "2024-12-02T00:00:00.000Z",
    "station_id": "0151",
    "variable": "BattVolt",
    "value": "13.35",
    "flag": 0,
    "units": "V",
    "units_plain": "V",
    "units_expanded": "volt",
    "variable_display_name": "Battery voltage",
    "interval_seconds": 300,
    "station_name": "Park HQ",
    "lat": 20.759806,
    "lng": -156.248167,
    "elevation": 2114
  },
  {
    "timestamp": "2024-12-02T00:00:00.000Z",
    "station_id": "0201",
    "variable": "BattVolt",
    "value": "13.7",
    "flag": 0,
    "units": "V",
    "units_plain": "V",
    "units_expanded": "volt",
    "variable_display_name": "Battery voltage",
    "interval_seconds": 300,
    "station_name": "Nahuku",
    "lat": 19.415215,
    "lng": -155.238394,
    "elevation": 1202
  },
  {
    "timestamp": "2024-12-02T00:00:00.000Z",
    "station_id": "0241",
    "variable": "BattVolt",
    "value": "13.64",
    "flag": 0,
    "units": "V",
    "units_plain": "V",
    "units_expanded": "volt",
    "variable_display_name": "Battery voltage",
    "interval_seconds": 300,
    "station_name": "Keahuolu",
    "lat": 19.668669,
    "lng": -155.957474,
    "elevation": 537
  },
  {
    "timestamp": "2024-12-02T00:00:00.000Z",
    "station_id": "0281",
    "variable": "BattVolt",
    "value": "12.73",
    "flag": 0,
    "units": "V",
    "units_plain": "V",
    "units_expanded": "volt",
    "variable_display_name": "Battery voltage",
    "interval_seconds": 300,
    "station_name": "IPIF",
    "lat": 19.69748,
    "lng": -155.0954,
    "elevation": 112
  },
  {
    "timestamp": "2024-12-02T00:00:00.000Z",
    "station_id": "0252",
    "variable": "BattVolt",
    "value": "13.59",
    "flag": 0,
    "units": "V",
    "units_plain": "V",
    "units_expanded": "volt",
    "variable_display_name": "Battery voltage",
    "interval_seconds": 300,
    "station_name": "Lalamilo",
    "lat": 20.019528,
    "lng": -155.677085,
    "elevation": 802
  },
  {
    "timestamp": "2024-12-02T00:00:00.000Z",
    "station_id": "0202",
    "variable": "BattVolt",
    "value": "13.57",
    "flag": 0,
    "units": "V",
    "units_plain": "V",
    "units_expanded": "volt",
    "variable_display_name": "Battery voltage",
    "interval_seconds": 300,
    "station_name": "Keaau",
    "lat": 19.6061748,
    "lng": -155.0515231,
    "elevation": 182
  }
]